tipnames	lat	lon	nuts0_id	nuts1_id
KY199556|NA|strix_nebulosa|DE|2016	51.4953567	11.9662371	DE	DEE
KU664608|Usutu_Berlin|strix_nebulosa|DE|2015-08-21	52.5200066	13.404954	DE	DE3
KF573410|NA|culex_pipiens|ES|2006-08-22	41.3154689	2.0130559	ES	ES5
KY426758|NA|turdus_merula|DE|2016-09-25	51.165691	10.451526	DE	NA
KX601692|USUV-Rhone2705/France/2015|turdus_merula|FR|2015-09-23	45.7351456	4.6108043	FR	FRK
